$GPRMC,112658.11,A,5459.094291,N,08253.617479,E,000.0,136.0,281105,,*3D
$GPRMC,112633.15,A,5459.086427,N,08253.638490,E,000.0,136.0,281105,,*36
$GPRMC,112601.15,A,5459.083991,N,08253.633130,E,003.1,164.0,281105,,*33
$GPRMC,112528.13,A,5459.125139,N,08253.614317,E,004.5,092.0,281105,,*33
$GPRMC,112306.15,A,5459.282760,N,08253.830781,E,011.0,214.0,281105,,*35
$GPRMC,112233.15,A,5459.337619,N,08253.867284,E,021.3,230.0,281105,,*36
$GPRMC,112200.21,A,5459.450113,N,08254.114897,E,005.2,218.0,281105,,*35
$GPRMC,112126.14,A,5459.464781,N,08254.131571,E,008.0,222.0,281105,,*3A
$GPRMC,112051.14,A,5459.566631,N,08254.254059,E,012.4,242.0,281105,,*34
$GPRMC,112018.19,A,5459.597161,N,08254.519333,E,024.2,264.0,281105,,*3E
$GPRMC,111945.18,A,5459.587955,N,08254.741906,E,000.0,226.0,281105,,*32
$GPRMC,111905.13,A,5459.623679,N,08254.835703,E,009.8,226.0,281105,,*37
$GPRMC,111833.16,A,5459.684631,N,08254.922113,E,009.5,226.0,281105,,*3A
$GPRMC,111800.13,A,5459.753940,N,08255.023104,E,004.3,230.0,281105,,*3E
$GPRMC,111728.19,A,5459.792927,N,08255.101089,E,011.7,222.0,281105,,*3B
$GPRMC,111655.19,A,5459.873221,N,08255.233155,E,013.5,218.0,281105,,*36
$GPRMC,111622.17,A,5459.966168,N,08255.354870,E,011.2,220.0,281105,,*33
$GPRMC,111535.18,A,5500.100351,N,08255.569112,E,017.5,210.0,281105,,*33
$GPRMC,111451.17,A,5500.302724,N,08255.849700,E,021.9,220.0,281105,,*39
$GPRMC,111416.18,A,5500.453800,N,08256.073639,E,021.3,222.0,281105,,*3E
$GPRMC,111320.17,A,5500.607708,N,08255.952339,E,004.5,106.0,281105,,*3F
$GPRMC,111248.19,A,5500.616618,N,08255.890787,E,000.0,128.0,281105,,*3D
$GPRMC,111216.20,A,5500.616019,N,08255.892105,E,006.0,128.0,281105,,*33
$GPRMC,111143.22,A,5500.735490,N,08255.605588,E,013.7,136.0,281105,,*3A
$GPRMC,111110.23,A,5500.853324,N,08255.447684,E,008.4,188.0,281105,,*3D
$GPRMC,111034.23,A,5500.844770,N,08255.579155,E,011.2,262.0,281105,,*37
$GPRMC,110959.19,A,5500.847060,N,08255.618963,E,006.3,238.0,281105,,*39
$GPRMC,110915.21,A,5501.096768,N,08255.824426,E,027.4,176.0,281105,,*30
$GPRMC,110816.23,A,5501.520909,N,08256.105256,E,019.5,218.0,281105,,*3E
$GPRMC,110705.21,A,5501.811412,N,08256.210163,E,019.0,130.0,281105,,*37
$GPRMC,110633.24,A,5501.874426,N,08256.057575,E,007.6,126.0,281105,,*3E
$GPRMC,110600.23,A,5501.923479,N,08255.954438,E,000.0,212.0,281105,,*34
$GPRMC,110534.22,A,5501.953802,N,08255.926532,E,002.8,324.0,281105,,*36
$GPRMC,061719.07,A,5501.927301,N,08255.989614,E,003.2,292.0,251105,,*38
$GPRMC,061718.05,A,5501.927301,N,08255.989614,E,003.2,292.0,251105,,*3B
$GPRMC,061656.06,A,5501.918472,N,08256.035826,E,000.0,060.0,251105,,*30
$GPRMC,061624.05,A,5501.922650,N,08256.055107,E,000.0,060.0,251105,,*31
$GPRMC,061549.05,A,5501.937333,N,08256.040050,E,007.6,038.0,251105,,*36
$GPRMC,061516.06,A,5501.915982,N,08255.935227,E,000.0,106.0,251105,,*38
$GPRMC,061444.06,A,5501.914847,N,08255.940252,E,006.3,108.0,251105,,*3C
$GPRMC,061357.93,A,5501.911450,N,08255.716451,E,008.9,016.0,251105,,*38
$GPRMC,061324.92,A,5501.741515,N,08255.707334,E,009.2,344.0,251105,,*3C
$GPRMC,061252.09,A,5501.608771,N,08255.756416,E,002.1,278.0,251105,,*37
$GPRMC,061220.01,A,5501.628513,N,08255.811817,E,000.0,322.0,251105,,*32
$GPRMC,061146.98,A,5501.612627,N,08255.817174,E,000.0,036.0,251105,,*30
$GPRMC,061113.05,A,5501.610555,N,08255.809598,E,003.1,028.0,251105,,*34
$GPRMC,060040.09,A,5501.581841,N,08255.787261,E,000.0,060.0,251105,,*3B
$GPRMC,055753.07,A,5501.469286,N,08255.791744,E,015.7,358.0,251105,,*3E
$GPRMC,055720.09,A,5501.321971,N,08255.976604,E,036.6,318.0,251105,,*3A
$GPRMC,055648.07,A,5501.130609,N,08256.377876,E,014.9,304.0,251105,,*38
$GPRMC,055614.06,A,5501.037079,N,08256.591493,E,015.7,304.0,251105,,*31
$GPRMC,055542.06,A,5500.889982,N,08256.933679,E,009.7,314.0,251105,,*3E
$GPRMC,055443.06,A,5500.884495,N,08256.940859,E,000.0,310.0,251105,,*3A
$GPRMC,055407.07,A,5500.823548,N,08257.086820,E,016.9,304.0,251105,,*30
$GPRMC,055334.07,A,5500.794532,N,08257.159003,E,000.0,308.0,251105,,*31
$GPRMC,055301.05,A,5500.774837,N,08257.205316,E,002.1,308.0,251105,,*3D
$GPRMC,055228.09,A,5500.749049,N,08257.264767,E,014.4,302.0,251105,,*39
$GPRMC,055155.08,A,5500.650056,N,08257.502739,E,000.0,308.0,251105,,*31
$GPRMC,055122.06,A,5500.648023,N,08257.505461,E,000.0,310.0,251105,,*34
$GPRMC,055048.10,A,5500.636268,N,08257.532435,E,009.4,308.0,251105,,*3B
$GPRMC,055016.09,A,5500.625979,N,08257.558159,E,000.0,308.0,251105,,*3F
$GPRMC,054943.07,A,5500.618764,N,08257.575181,E,008.6,316.0,251105,,*3E
$GPRMC,054910.08,A,5500.515036,N,08257.803504,E,018.9,302.0,251105,,*37
$GPRMC,054838.14,A,5500.415104,N,08258.053405,E,017.5,308.0,251105,,*3B
$GPRMC,054804.11,A,5500.315558,N,08258.279624,E,009.5,302.0,251105,,*35
$GPRMC,054732.13,A,5500.254203,N,08258.418070,E,014.8,310.0,251105,,*34
$GPRMC,054659.08,A,5500.156889,N,08258.658225,E,022.1,304.0,251105,,*36
$GPRMC,054626.06,A,5500.048472,N,08258.771737,E,007.0,066.0,251105,,*3B
$GPRMC,054540.99,A,5500.084593,N,08258.726105,E,000.0,162.0,251105,,*37
$GPRMC,054055.08,A,5500.064562,N,08258.701660,E,000.0,162.0,251105,,*3F
$GPRMC,054016.09,A,5500.051991,N,08258.698773,E,000.0,162.0,251105,,*3D
$GPRMC,053943.06,A,5500.046803,N,08258.706400,E,023.6,160.0,251105,,*34
$GPRMC,053910.03,A,5500.070644,N,08258.708752,E,000.0,028.0,251105,,*3F
$GPRMC,053036.15,A,5500.060466,N,08258.713751,E,002.0,188.0,251105,,*36
$GPRMC,053015.14,A,5500.060288,N,08258.724537,E,000.0,170.0,251105,,*33
$GPRMC,052406.15,A,5500.065961,N,08258.684574,E,002.0,194.0,251105,,*38
$GPRMC,052130.14,A,5500.062632,N,08258.709859,E,002.6,188.0,251105,,*3A
$GPRMC,052057.11,A,5500.097411,N,08258.704352,E,000.0,082.0,251105,,*34
$GPRMC,051602.18,A,5500.078482,N,08258.715133,E,000.0,082.0,251105,,*36
$GPRMC,051524.14,A,5500.067761,N,08258.691841,E,000.0,312.0,251105,,*36
$GPRMC,051434.15,A,5500.048459,N,08258.692303,E,010.0,232.0,251105,,*3E
$GPRMC,051401.15,A,5500.140127,N,08258.745557,E,023.3,126.0,251105,,*34
$GPRMC,051326.18,A,5500.257386,N,08258.456596,E,020.1,116.0,251105,,*39
$GPRMC,051112.18,A,5500.610330,N,08257.613879,E,021.3,126.0,251105,,*36
$GPRMC,051038.16,A,5500.673724,N,08257.443820,E,000.0,134.0,251105,,*3D
$GPRMC,051006.17,A,5500.748348,N,08257.310489,E,011.7,110.0,251105,,*39
$GPRMC,050928.18,A,5500.830242,N,08257.100435,E,010.7,130.0,251105,,*3E
$GPRMC,050716.22,A,5500.998594,N,08256.687155,E,002.2,118.0,251105,,*3D
$GPRMC,050643.19,A,5501.062867,N,08256.528590,E,022.8,124.0,251105,,*34
$GPRMC,050610.13,A,5501.205528,N,08256.184895,E,028.5,126.0,251105,,*32
$GPRMC,050516.16,A,5501.421468,N,08255.752262,E,000.0,324.0,251105,,*34
$GPRMC,050433.16,A,5501.342822,N,08255.867505,E,014.6,230.0,251105,,*3A
$GPRMC,050400.17,A,5501.467277,N,08256.033918,E,034.7,216.0,251105,,*3C
$GPRMC,050326.19,A,5501.717586,N,08256.357752,E,013.4,202.0,251105,,*3E
$GPRMC,050253.20,A,5501.841533,N,08256.151843,E,011.9,124.0,251105,,*36
$GPRMC,050220.19,A,5501.914694,N,08255.968481,E,007.2,128.0,251105,,*34
$GPRMC,050201.17,A,5501.912140,N,08255.922099,E,000.0,000.0,251105,,*3C
$GPRMC,043129.86,A,5501.869298,N,08255.853199,E,004.3,256.0,251105,,*34
$GPRMC,043058.87,A,5501.876919,N,08255.928489,E,008.0,246.0,251105,,*39
$GPRMC,043027.88,A,5501.890487,N,08255.956461,E,013.2,250.0,251105,,*3C
$GPRMC,043010.85,A,5501.907950,N,08256.037557,E,024.6,240.0,251105,,*35
$GPRMC,042854.88,A,5501.893429,N,08256.005698,E,000.0,072.0,251105,,*3C
$GPRMC,042838.86,A,5501.896852,N,08256.006066,E,000.0,072.0,251105,,*39
$GPRMC,042721.89,A,5501.898448,N,08256.008512,E,000.0,072.0,251105,,*30
$GPRMC,042634.90,A,5501.896451,N,08256.016305,E,000.0,072.0,251105,,*34
$GPRMC,042545.91,A,5501.902469,N,08256.038761,E,000.0,072.0,251105,,*3D
$GPRMC,042508.87,A,5501.906292,N,08256.050646,E,002.3,072.0,251105,,*3E
$GPRMC,042450.90,A,5501.906131,N,08256.044620,E,002.3,076.0,251105,,*3F
$GPRMC,042436.92,A,5501.906236,N,08256.035829,E,001.9,068.0,251105,,*3E
$GPRMC,042419.89,A,5501.905273,N,08256.026187,E,000.0,266.0,251105,,*30
$GPRMC,042404.92,A,5501.901088,N,08256.015723,E,000.0,266.0,251105,,*3C
$GPRMC,042329.89,A,5501.898850,N,08256.006841,E,000.0,266.0,251105,,*3B
$GPRMC,042058.92,A,5501.903852,N,08256.027369,E,000.0,266.0,251105,,*37
$GPRMC,042015.84,A,5501.907909,N,08256.013663,E,002.1,266.0,251105,,*39
$GPRMC,041816.95,A,5501.900363,N,08255.994139,E,000.0,228.0,251105,,*34
$GPRMC,041759.93,A,5501.888422,N,08255.989352,E,000.0,228.0,251105,,*36
$GPRMC,041712.86,A,5501.886590,N,08255.954905,E,003.0,228.0,251105,,*30
$GPRMC,041655.88,A,5501.882907,N,08255.944967,E,004.6,242.0,251105,,*32
$GPRMC,041639.89,A,5501.885079,N,08255.959467,E,004.5,238.0,251105,,*31
$GPRMC,041622.93,A,5501.889446,N,08255.974188,E,003.8,246.0,251105,,*3C
$GPRMC,041606.90,A,5501.891349,N,08255.987021,E,003.6,246.0,251105,,*38
$GPRMC,041551.89,A,5501.893337,N,08256.000989,E,002.0,236.0,251105,,*34
$GPRMC,041533.94,A,5501.895864,N,08256.013341,E,000.0,208.0,251105,,*34
$GPRMC,041517.90,A,5501.895368,N,08256.018877,E,000.0,208.0,251105,,*34
$GPRMC,041442.94,A,5501.886522,N,08256.014233,E,000.0,208.0,251105,,*3D
$GPRMC,041405.92,A,5501.894762,N,08256.009289,E,000.0,208.0,251105,,*30
$GPRMC,040055.91,A,5501.889408,N,08256.007910,E,000.0,208.0,251105,,*35
$GPRMC,040039.92,A,5501.890620,N,08256.007162,E,002.0,208.0,251105,,*33
$GPRMC,040008.94,A,5501.901197,N,08256.013410,E,002.4,218.0,251105,,*35
$GPRMC,035952.93,A,5501.905683,N,08256.019462,E,000.0,048.0,251105,,*3E
$GPRMC,035935.94,A,5501.906537,N,08256.024040,E,000.0,048.0,251105,,*3D
$GPRMC,035820.97,A,5501.902238,N,08256.028850,E,000.0,048.0,251105,,*32
$GPRMC,035746.95,A,5501.894447,N,08256.013839,E,000.0,048.0,251105,,*38
$GPRMC,035714.96,A,5501.896378,N,08256.027926,E,000.0,048.0,251105,,*3D
$GPRMC,035642.97,A,5501.917325,N,08256.025772,E,000.0,048.0,251105,,*33
$GPRMC,035609.93,A,5501.910537,N,08256.016657,E,000.0,048.0,251105,,*3C
$GPRMC,035536.96,A,5501.903325,N,08256.014217,E,000.0,048.0,251105,,*33
$GPRMC,035501.97,A,5501.908625,N,08256.042118,E,000.0,048.0,251105,,*37
$GPRMC,035428.95,A,5501.937504,N,08256.054489,E,003.0,030.0,251105,,*35
$GPRMC,035355.95,A,5501.907211,N,08256.002554,E,000.0,248.0,251105,,*34
$GPRMC,035223.99,A,5501.904381,N,08256.029690,E,000.0,208.0,251105,,*35
$GPRMC,035126.94,A,5501.903605,N,08256.039744,E,000.0,208.0,251105,,*39
$GPRMC,035043.98,A,5501.996369,N,08256.172439,E,000.0,210.0,251105,,*3A
$GPRMC,035012.99,A,5501.967403,N,08256.086453,E,000.0,210.0,251105,,*3C
$GPRMC,034922.97,A,5501.897458,N,08256.023226,E,000.0,210.0,251105,,*32
$GPRMC,034849.97,A,5501.887374,N,08256.012291,E,000.0,210.0,251105,,*38
$GPRMC,034817.00,A,5501.911437,N,08256.032268,E,000.0,214.0,251105,,*33
$GPRMC,034744.99,A,5501.907386,N,08256.024866,E,001.9,222.0,251105,,*3E
$GPRMC,034711.98,A,5501.921090,N,08256.044099,E,000.0,024.0,251105,,*3D
$GPRMC,034638.97,A,5501.930349,N,08256.053720,E,000.0,024.0,251105,,*3C
$GPRMC,034605.95,A,5501.901758,N,08256.027441,E,000.0,198.0,251105,,*37
$GPRMC,034533.94,A,5501.884088,N,08256.014939,E,000.0,198.0,251105,,*34
$GPRMC,034500.96,A,5501.877377,N,08255.987156,E,000.0,212.0,251105,,*39
$GPRMC,034421.95,A,5501.913219,N,08256.008070,E,000.0,004.0,251105,,*3F
$GPRMC,034333.93,A,5501.923151,N,08256.033525,E,000.0,004.0,251105,,*3C
$GPRMC,034218.91,A,5501.913274,N,08256.032624,E,002.7,034.0,251105,,*34
$GPRMC,034214.96,A,5501.909052,N,08256.027723,E,002.4,036.0,251105,,*31
$GPRMC,033856.94,A,5501.922179,N,08256.060291,E,002.2,052.0,251105,,*32
$GPRMC,033842.93,A,5501.922679,N,08256.060635,E,002.4,052.0,251105,,*3B
$GPRMC,033840.95,A,5501.922993,N,08256.060911,E,002.6,052.0,251105,,*3F
$GPRMC,033810.00,A,5501.909671,N,08256.029141,E,002.4,042.0,251105,,*3F
$GPRMC,033734.96,A,5501.886723,N,08255.982916,E,000.0,232.0,251105,,*3B
$GPRMC,033423.99,A,5501.870313,N,08255.972138,E,005.9,220.0,251105,,*3B
$GPRMC,033407.98,A,5501.872706,N,08255.976562,E,005.9,220.0,251105,,*31
$GPRMC,033405.99,A,5501.874692,N,08255.980406,E,005.9,220.0,251105,,*32
$GPRMC,033404.01,A,5501.876588,N,08255.984127,E,003.6,216.0,251105,,*36
$GPRMC,033338.00,A,5501.892246,N,08256.014268,E,003.0,192.0,251105,,*32
$GPRMC,033234.98,A,5501.901418,N,08256.024240,E,000.0,068.0,251105,,*36
$GPRMC,033227.97,A,5501.912841,N,08256.040613,E,000.0,068.0,251105,,*39
$GPRMC,033152.01,A,5501.905042,N,08256.006865,E,000.0,044.0,251105,,*39
$GPRMC,033119.97,A,5501.892774,N,08255.998206,E,000.0,250.0,251105,,*31
$GPRMC,033049.97,A,5501.889255,N,08255.984255,E,000.0,250.0,251105,,*32
$GPRMC,032950.98,A,5501.896519,N,08255.999630,E,002.4,236.0,251105,,*31
$GPRMC,032914.98,A,5501.913214,N,08256.038675,E,000.0,028.0,251105,,*3C
$GPRMC,032732.00,A,5501.913499,N,08256.032449,E,000.0,044.0,251105,,*39
$GPRMC,032602.00,A,5501.874637,N,08255.984676,E,000.0,236.0,251105,,*33
$GPRMC,032540.99,A,5501.872783,N,08255.973710,E,001.9,236.0,251105,,*3F
$GPRMC,032507.96,A,5501.874609,N,08255.983084,E,000.0,236.0,251105,,*3B
$GPRMC,032436.97,A,5501.874473,N,08255.988492,E,002.4,236.0,251105,,*38
$GPRMC,032420.98,A,5501.874116,N,08255.994079,E,002.8,208.0,251105,,*3B
$GPRMC,032334.01,A,5501.883430,N,08256.004341,E,000.0,226.0,251105,,*3D
$GPRMC,032233.02,A,5501.886966,N,08255.991069,E,000.0,226.0,251105,,*3C
$GPRMC,032200.02,A,5501.887316,N,08255.991547,E,002.0,226.0,251105,,*3B
$GPRMC,032057.97,A,5501.906784,N,08256.042239,E,002.4,058.0,251105,,*35
$GPRMC,032030.00,A,5501.899986,N,08256.022167,E,000.0,246.0,251105,,*34
$GPRMC,032021.01,A,5501.892056,N,08255.998090,E,000.0,246.0,251105,,*38
$GPRMC,031948.01,A,5501.891673,N,08256.009501,E,003.1,214.0,251105,,*35
$GPRMC,031721.97,A,5501.937523,N,08256.076767,E,003.0,042.0,251105,,*3A
$GPRMC,031708.98,A,5501.936442,N,08256.074193,E,003.0,040.0,251105,,*34
$GPRMC,031704.96,A,5501.935053,N,08256.071283,E,003.1,036.0,251105,,*36
$GPRMC,031702.97,A,5501.930848,N,08256.064084,E,003.4,032.0,251105,,*36
$GPRMC,031556.99,A,5501.883644,N,08256.001378,E,002.9,232.0,251105,,*3D
$GPRMC,031551.03,A,5501.884444,N,08256.005146,E,002.8,226.0,251105,,*33
$GPRMC,031521.00,A,5501.897624,N,08256.009744,E,000.0,212.0,251105,,*34
$GPRMC,031428.02,A,5501.892332,N,08256.017490,E,000.0,212.0,251105,,*3C
$GPRMC,031143.01,A,5501.922800,N,08256.059114,E,000.0,222.0,251105,,*37
$GPRMC,025932.06,A,5501.904996,N,08256.021291,E,002.2,222.0,251105,,*30
$GPRMC,025859.04,A,5501.919660,N,08256.053844,E,001.9,214.0,251105,,*3E
$GPRMC,024628.07,A,5501.889018,N,08255.997949,E,000.0,020.0,251105,,*36
$GPRMC,024504.07,A,5501.877798,N,08255.963894,E,000.0,262.0,251105,,*3B
$GPRMC,023737.06,A,5501.883137,N,08255.990586,E,002.3,050.0,251105,,*37
$GPRMC,023517.08,A,5501.862417,N,08255.952226,E,002.1,086.0,251105,,*3B
$GPRMC,023402.07,A,5501.922166,N,08256.015155,E,002.7,066.0,251105,,*31
$GPRMC,023401.04,A,5501.922166,N,08256.015155,E,002.7,066.0,251105,,*31
$GPRMC,023206.10,A,5501.824748,N,08255.891452,E,003.2,216.0,251105,,*3C
$GPRMC,023151.07,A,5501.830920,N,08255.907113,E,002.5,214.0,251105,,*34
$GPRMC,023136.04,A,5501.822990,N,08255.918445,E,003.4,210.0,251105,,*32
$GPRMC,023121.12,A,5501.775272,N,08255.899016,E,002.4,200.0,251105,,*33
$GPRMC,023104.16,A,5501.744738,N,08255.844503,E,002.5,206.0,251105,,*3F
$GPRMC,023050.13,A,5501.713527,N,08255.791663,E,005.2,210.0,251105,,*31
$GPRMC,023018.10,A,5501.594297,N,08255.583874,E,022.1,210.0,251105,,*30
$GPRMC,023002.09,A,5501.552438,N,08255.471122,E,040.3,218.0,251105,,*32
$GPRMC,022914.08,A,5501.980086,N,08256.178818,E,000.0,320.0,251105,,*3C
$GPRMC,020546.05,A,5501.897323,N,08256.010671,E,000.0,320.0,251105,,*3D
$GPRMC,020346.03,A,5501.928622,N,08256.026199,E,002.2,320.0,251105,,*38
$GPRMC,020337.04,A,5501.926759,N,08256.029114,E,002.1,320.0,251105,,*33
$GPRMC,020331.04,A,5501.926759,N,08256.029114,E,002.1,320.0,251105,,*35
$GPRMC,020308.05,A,5501.911543,N,08256.033321,E,002.7,288.0,251105,,*39
$GPRMC,020235.13,A,5501.914705,N,08256.067058,E,003.2,086.0,251105,,*30
$GPRMC,020203.14,A,5501.936029,N,08256.056040,E,007.6,076.0,251105,,*3F
$GPRMC,020130.14,A,5501.937565,N,08255.945796,E,005.4,082.0,251105,,*3F
$GPRMC,020057.17,A,5501.915260,N,08255.754993,E,015.5,078.0,251105,,*3E
$GPRMC,020024.17,A,5501.863078,N,08255.705937,E,020.8,012.0,251105,,*3C
$GPRMC,015951.15,A,5501.674645,N,08255.733740,E,009.7,352.0,251105,,*3B
$GPRMC,015918.16,A,5501.606361,N,08255.762970,E,002.8,016.0,251105,,*3D
$GPRMC,015846.19,A,5501.541658,N,08255.796452,E,005.9,338.0,251105,,*38
$GPRMC,015813.17,A,5501.540435,N,08255.971333,E,011.4,242.0,251105,,*3D
$GPRMC,015740.16,A,5501.671506,N,08255.997314,E,022.3,170.0,251105,,*3D
$GPRMC,015706.15,A,5501.885546,N,08255.945973,E,009.5,170.0,251105,,*36
$GPRMC,015634.13,A,5501.912127,N,08255.922095,E,008.5,182.0,251105,,*30
$GPRMC,015600.11,A,5502.016271,N,08255.890017,E,003.5,236.0,251105,,*3E
$GPRMC,015527.16,A,5502.034922,N,08255.999749,E,012.4,240.0,251105,,*36
$GPRMC,015455.17,A,5502.089041,N,08256.179101,E,013.9,162.0,251105,,*39
$GPRMC,015422.12,A,5502.259176,N,08256.093381,E,003.3,210.0,251105,,*34
$GPRMC,015349.20,A,5502.272443,N,08256.083952,E,004.2,252.0,251105,,*30
$GPRMC,015317.17,A,5502.282673,N,08256.175054,E,015.2,256.0,251105,,*32
$GPRMC,015244.06,A,5502.315267,N,08256.483226,E,021.0,264.0,251105,,*34
$GPRMC,014900.16,A,5502.990518,N,08257.609513,E,002.2,292.0,251105,,*3D
$GPRMC,014757.17,A,5502.990071,N,08257.675142,E,004.5,252.0,251105,,*3C
$GPRMC,014742.14,A,5503.002940,N,08257.726954,E,007.1,244.0,251105,,*3B
$GPRMC,014726.12,A,5503.025636,N,08257.789491,E,006.6,252.0,251105,,*34
$GPRMC,014640.18,A,5503.036888,N,08257.888177,E,000.0,182.0,251105,,*3B
$GPRMC,014609.19,A,5503.037091,N,08257.907844,E,000.0,182.0,251105,,*39
$GPRMC,014433.13,A,5503.054022,N,08257.930899,E,000.0,182.0,251105,,*31
$GPRMC,140300.01,A,5502.605537,N,08256.989030,E,002.7,138.0,241105,,*3A
$GPRMC,140259.00,A,5502.605763,N,08256.989922,E,003.6,138.0,241105,,*3F
$GPRMC,140257.98,A,5502.606443,N,08256.990896,E,004.1,136.0,241105,,*3A
$GPRMC,140248.02,A,5502.619128,N,08256.989420,E,008.6,124.0,241105,,*30
$GPRMC,140215.02,A,5502.666979,N,08256.713118,E,020.7,080.0,241105,,*3B
$GPRMC,140142.01,A,5502.636856,N,08256.479252,E,014.6,076.0,241105,,*3D
$GPRMC,140110.03,A,5502.629425,N,08256.256899,E,008.9,084.0,241105,,*37
$GPRMC,140037.03,A,5502.594007,N,08256.045331,E,025.5,078.0,241105,,*3B
$GPRMC,140003.00,A,5502.559179,N,08255.737613,E,000.0,348.0,241105,,*30
$GPRMC,135930.00,A,5502.543179,N,08255.749651,E,018.3,336.0,241105,,*3C
$GPRMC,135856.99,A,5502.374825,N,08255.801401,E,018.1,352.0,241105,,*3B
$GPRMC,135757.99,A,5502.215422,N,08255.853186,E,016.2,350.0,241105,,*3A
$GPRMC,135725.02,A,5502.052615,N,08255.898580,E,014.8,350.0,241105,,*37
$GPRMC,135653.02,A,5501.958472,N,08255.920344,E,019.8,352.0,241105,,*37
$GPRMC,135619.99,A,5501.924716,N,08255.994560,E,005.7,236.0,241105,,*3F
$GPRMC,135455.04,A,5501.929678,N,08255.991097,E,000.0,058.0,241105,,*35
$GPRMC,135422.01,A,5501.930013,N,08255.960578,E,016.5,340.0,241105,,*31
$GPRMC,135348.99,A,5501.788069,N,08256.234722,E,024.6,308.0,241105,,*31
$GPRMC,135315.99,A,5501.709419,N,08256.362782,E,002.4,034.0,241105,,*31
$GPRMC,135236.00,A,5501.554781,N,08256.174935,E,034.3,036.0,241105,,*3E
$GPRMC,135200.00,A,5501.285490,N,08255.854815,E,032.1,014.0,241105,,*3C
$GPRMC,135127.97,A,5501.009036,N,08255.885669,E,025.4,014.0,241105,,*30
$GPRMC,135053.93,A,5500.847220,N,08255.653262,E,021.6,050.0,241105,,*3C
$GPRMC,135020.95,A,5500.697011,N,08255.701714,E,028.2,306.0,241105,,*32
$GPRMC,134947.94,A,5500.578617,N,08255.966321,E,000.0,298.0,241105,,*3B
$GPRMC,134909.06,A,5500.485562,N,08256.158971,E,025.4,302.0,241105,,*30
$GPRMC,134836.05,A,5500.414737,N,08256.406048,E,000.0,190.0,241105,,*33
$GPRMC,134803.02,A,5500.487124,N,08256.361044,E,023.3,140.0,241105,,*39
$GPRMC,134730.00,A,5500.474417,N,08256.115635,E,022.8,040.0,241105,,*37
$GPRMC,134656.04,A,5500.297166,N,08255.863378,E,023.8,038.0,241105,,*33
$GPRMC,134623.01,A,5500.136320,N,08255.618811,E,023.4,040.0,241105,,*39
$GPRMC,134550.03,A,5459.985390,N,08255.387590,E,023.5,038.0,241105,,*33
$GPRMC,134517.02,A,5459.821875,N,08255.154142,E,024.8,038.0,241105,,*33
$GPRMC,134442.00,A,5459.627296,N,08254.874494,E,011.3,038.0,241105,,*36
$GPRMC,134412.02,A,5459.559812,N,08254.781118,E,000.0,132.0,241105,,*31
$GPRMC,134339.03,A,5459.591995,N,08254.703871,E,019.3,100.0,241105,,*32
$GPRMC,134306.02,A,5459.566054,N,08254.342431,E,004.1,070.0,241105,,*32
$GPRMC,134233.04,A,5459.543245,N,08254.296261,E,015.7,046.0,241105,,*3E
$GPRMC,134201.05,A,5459.440713,N,08254.108627,E,007.9,042.0,241105,,*31
$GPRMC,134116.02,A,5459.305893,N,08253.884781,E,005.8,040.0,241105,,*34
$GPRMC,112654.17,A,5459.091407,N,08253.605825,E,000.0,174.0,241105,,*37
$GPRMC,112630.21,A,5459.091407,N,08253.605825,E,000.0,174.0,241105,,*30
$GPRMC,112557.18,A,5459.084971,N,08253.625916,E,002.2,174.0,241105,,*33
$GPRMC,112524.25,A,5459.128854,N,08253.637678,E,006.3,094.0,241105,,*36
$GPRMC,112452.26,A,5459.127456,N,08253.562664,E,003.1,230.0,241105,,*31
$GPRMC,112419.25,A,5459.144804,N,08253.598733,E,016.2,222.0,241105,,*31
$GPRMC,112346.30,A,5459.282795,N,08253.816849,E,014.8,224.0,241105,,*31
$GPRMC,112313.31,A,5459.394435,N,08253.988318,E,017.0,230.0,241105,,*38
$GPRMC,112240.29,A,5459.481001,N,08254.159832,E,015.7,222.0,241105,,*30
$GPRMC,112208.27,A,5459.576745,N,08254.299600,E,004.2,246.0,241105,,*3B
$GPRMC,112134.27,A,5459.593951,N,08254.544769,E,021.0,264.0,241105,,*3B
$GPRMC,112102.29,A,5459.582543,N,08254.721442,E,008.1,236.0,241105,,*39
$GPRMC,112029.30,A,5459.655551,N,08254.895737,E,016.5,216.0,241105,,*3B
$GPRMC,111956.29,A,5459.790758,N,08255.083318,E,019.8,220.0,241105,,*32
$GPRMC,111923.29,A,5459.936370,N,08255.306629,E,021.9,220.0,241105,,*3F
$GPRMC,111806.27,A,5500.226479,N,08255.737346,E,020.5,224.0,241105,,*3D
$GPRMC,111723.29,A,5500.401674,N,08255.996622,E,015.1,216.0,241105,,*36
$GPRMC,111650.30,A,5500.530969,N,08256.187517,E,012.9,216.0,241105,,*3A
$GPRMC,111617.29,A,5500.568650,N,08256.158262,E,008.1,108.0,241105,,*31
$GPRMC,111523.25,A,5500.631434,N,08255.840202,E,002.8,130.0,241105,,*3B
$GPRMC,111450.26,A,5500.631776,N,08255.828730,E,003.4,144.0,241105,,*3C
$GPRMC,111432.25,A,5500.639471,N,08255.823030,E,008.4,124.0,241105,,*36
$GPRMC,111336.30,A,5500.713833,N,08255.576179,E,004.7,162.0,241105,,*3E
$GPRMC,130110.06,A,5501.526044,N,08255.836768,E,002.0,228.0,231105,,*37
$GPRMC,130028.14,A,5501.535258,N,08255.840731,E,000.0,094.0,231105,,*39
$GPRMC,125956.14,A,5501.527893,N,08255.787926,E,009.6,046.0,231105,,*3F
$GPRMC,125923.13,A,5501.405551,N,08255.756492,E,002.4,316.0,231105,,*39
$GPRMC,125850.15,A,5501.368873,N,08255.818222,E,011.8,332.0,231105,,*3B
$GPRMC,125816.11,A,5501.276173,N,08255.851815,E,031.0,008.0,231105,,*39
$GPRMC,125740.10,A,5500.945326,N,08255.849350,E,030.5,028.0,231105,,*39
$GPRMC,125707.11,A,5500.770886,N,08255.617292,E,008.5,354.0,231105,,*3B
$GPRMC,125634.10,A,5500.767292,N,08255.609801,E,000.0,336.0,231105,,*34
$GPRMC,125601.14,A,5500.727668,N,08255.647778,E,021.0,306.0,231105,,*38
$GPRMC,125412.12,A,5500.416938,N,08256.402115,E,000.0,208.0,231105,,*34
$GPRMC,125339.11,A,5500.462390,N,08256.391371,E,024.6,142.0,231105,,*32
$GPRMC,125306.14,A,5500.541510,N,08256.220481,E,009.4,046.0,231105,,*3E
$GPRMC,125117.14,A,5500.235030,N,08255.751131,E,024.4,038.0,231105,,*37
$GPRMC,125045.16,A,5500.059741,N,08255.503044,E,024.1,042.0,231105,,*34
$GPRMC,125012.17,A,5459.885816,N,08255.238776,E,021.0,040.0,231105,,*31
$GPRMC,124924.17,A,5459.651676,N,08254.897245,E,013.8,040.0,231105,,*31
$GPRMC,124853.17,A,5459.581266,N,08254.826748,E,003.2,024.0,231105,,*30
$GPRMC,124820.11,A,5459.561581,N,08254.781568,E,000.0,022.0,231105,,*37
$GPRMC,124746.12,A,5459.562140,N,08254.774388,E,000.0,022.0,231105,,*33
$GPRMC,124705.17,A,5459.566104,N,08254.767291,E,000.0,022.0,231105,,*3E
$GPRMC,124632.18,A,5459.569805,N,08254.767427,E,000.0,022.0,231105,,*38
$GPRMC,124600.17,A,5459.571469,N,08254.758265,E,000.0,022.0,231105,,*35
$GPRMC,124526.16,A,5459.577599,N,08254.757491,E,000.0,022.0,231105,,*39
$GPRMC,124453.18,A,5459.576421,N,08254.786136,E,002.5,074.0,231105,,*37
$GPRMC,124420.15,A,5459.570558,N,08254.775083,E,002.0,078.0,231105,,*3D
$GPRMC,124332.12,A,5459.569527,N,08254.774444,E,000.0,000.0,231105,,*3D
$GPRMC,124259.13,A,5459.572953,N,08254.744227,E,000.0,000.0,231105,,*35
$GPRMC,135702.16,A,5503.047193,N,08257.967098,E,000.0,192.0,221105,,*33
$GPRMC,135653.16,A,5503.047193,N,08257.967098,E,000.0,192.0,221105,,*36
$GPRMC,135621.14,A,5503.057940,N,08257.960966,E,007.2,150.0,221105,,*32
$GPRMC,135547.17,A,5503.078010,N,08257.918593,E,004.6,222.0,221105,,*3B
$GPRMC,135515.16,A,5503.127518,N,08258.019636,E,015.8,228.0,221105,,*34
$GPRMC,135442.17,A,5503.241184,N,08258.209370,E,011.9,256.0,221105,,*3C
$GPRMC,135410.18,A,5503.269076,N,08258.310268,E,004.9,296.0,221105,,*3B
$GPRMC,135336.19,A,5503.348311,N,08258.477069,E,020.2,238.0,221105,,*35
$GPRMC,135303.19,A,5503.467202,N,08258.729001,E,013.4,226.0,221105,,*35
$GPRMC,135231.12,A,5503.589460,N,08258.983102,E,008.8,254.0,221105,,*32
$GPRMC,135157.14,A,5503.550553,N,08259.096441,E,000.0,350.0,221105,,*39
$GPRMC,134948.19,A,5503.555870,N,08259.091418,E,000.0,350.0,221105,,*31
$GPRMC,134840.27,A,5503.553280,N,08259.089392,E,000.0,350.0,221105,,*3A
$GPRMC,134559.17,A,5503.558745,N,08259.088871,E,000.0,351.0,221105,,*3D
$GPRMC,134526.17,A,5503.553995,N,08259.094860,E,003.3,325.0,221105,,*33
$GPRMC,134454.23,A,5503.599350,N,08259.056290,E,008.7,109.0,221105,,*3D
$GPRMC,134400.22,A,5503.488251,N,08258.877730,E,019.2,075.0,221105,,*36
$GPRMC,134326.19,A,5503.520055,N,08258.594960,E,019.8,143.0,221105,,*3D
$GPRMC,134137.18,A,5504.053534,N,08257.861623,E,021.8,143.0,221105,,*31
$GPRMC,134103.19,A,5504.106275,N,08257.820131,E,000.0,217.0,221105,,*3C
$GPRMC,134029.15,A,5504.141436,N,08257.885923,E,007.5,231.0,221105,,*39
$GPRMC,133956.19,A,5504.166181,N,08257.928880,E,003.0,263.0,221105,,*37
$GPRMC,133923.16,A,5504.209873,N,08257.905188,E,009.5,311.0,221105,,*31
$GPRMC,133851.19,A,5504.146822,N,08257.914360,E,022.4,053.0,221105,,*3F
$GPRMC,133818.17,A,5504.074761,N,08257.843783,E,000.0,321.0,221105,,*3C
$GPRMC,133745.13,A,5503.959687,N,08258.001912,E,027.1,323.0,221105,,*36
$GPRMC,133713.12,A,5503.771662,N,08258.249918,E,031.2,321.0,221105,,*39
$GPRMC,133641.22,A,5503.632121,N,08258.452474,E,008.3,323.0,221105,,*38
$GPRMC,133608.23,A,5503.555202,N,08258.541360,E,000.0,047.0,221105,,*3F
$GPRMC,133505.15,A,5503.403117,N,08258.232554,E,024.5,053.0,221105,,*35
$GPRMC,133432.21,A,5503.271416,N,08257.949681,E,020.0,057.0,221105,,*36
$GPRMC,133359.17,A,5503.169813,N,08257.706483,E,014.2,081.0,221105,,*31
$GPRMC,133326.22,A,5503.136039,N,08257.583730,E,016.2,353.0,221105,,*3F
$GPRMC,133254.20,A,5502.949493,N,08257.650916,E,030.5,357.0,221105,,*3C
$GPRMC,133220.24,A,5502.668814,N,08257.709232,E,028.6,351.0,221105,,*38
$GPRMC,133148.22,A,5502.475530,N,08257.727607,E,002.7,051.0,221105,,*32
$GPRMC,133100.17,A,5502.476148,N,08257.730518,E,000.0,035.0,221105,,*3C
$GPRMC,133027.19,A,5502.451034,N,08257.692662,E,017.5,045.0,221105,,*3A
$GPRMC,132954.20,A,5502.380139,N,08257.284360,E,024.0,083.0,221105,,*30
$GPRMC,132921.21,A,5502.345037,N,08256.894510,E,027.6,081.0,221105,,*39
$GPRMC,132848.25,A,5502.304220,N,08256.519534,E,026.2,115.0,221105,,*35
$GPRMC,132815.21,A,5502.280205,N,08256.120371,E,005.8,045.0,221105,,*35
$GPRMC,132743.18,A,5502.269675,N,08256.111858,E,004.6,001.0,221105,,*3A
$GPRMC,132710.23,A,5502.172590,N,08256.127554,E,011.1,355.0,221105,,*30
$GPRMC,132637.20,A,5502.070487,N,08256.185205,E,014.5,019.0,221105,,*32
$GPRMC,132604.17,A,5502.029683,N,08255.909214,E,010.5,351.0,221105,,*38
$GPRMC,132530.23,A,5501.918995,N,08255.967669,E,008.2,301.0,221105,,*36
$GPRMC,132458.26,A,5501.923696,N,08255.969343,E,000.0,317.0,221105,,*36
$GPRMC,132425.21,A,5501.838637,N,08256.135469,E,031.0,306.0,221105,,*34
$GPRMC,132352.20,A,5501.723851,N,08256.360212,E,000.0,000.0,221105,,*36
$GPRMC,132214.17,A,5501.227711,N,08255.844485,E,016.0,358.0,221105,,*34
$GPRMC,130646.10,A,5500.526707,N,08256.132098,E,013.8,335.0,221105,,*37
$GPRMC,130620.14,A,5500.438037,N,08256.368156,E,012.1,305.0,221105,,*3C
$GPRMC,130547.20,A,5500.512968,N,08256.325868,E,019.7,143.0,221105,,*33
$GPRMC,130356.13,A,5500.057951,N,08255.515153,E,024.5,042.0,221105,,*30
$GPRMC,130324.17,A,5459.895647,N,08255.255612,E,027.8,040.0,221105,,*3F
$GPRMC,130250.15,A,5459.701839,N,08254.929896,E,032.9,030.0,221105,,*3B
$GPRMC,130218.17,A,5459.559766,N,08254.769158,E,003.3,314.0,221105,,*33
$GPRMC,130145.17,A,5459.553153,N,08254.786161,E,000.0,130.0,221105,,*3D
$GPRMC,130112.19,A,5459.560958,N,08254.783504,E,000.0,172.0,221105,,*36
$GPRMC,130040.20,A,5459.581980,N,08254.787454,E,003.1,098.0,221105,,*37
$GPRMC,130007.17,A,5459.610762,N,08254.736813,E,006.2,296.0,221105,,*36
$GPRMC,125933.21,A,5459.592945,N,08254.728966,E,007.1,276.0,221105,,*3B
$GPRMC,125900.19,A,5459.655219,N,08254.879538,E,010.9,220.0,221105,,*3B
$GPRMC,125827.16,A,5459.747170,N,08255.017201,E,019.7,220.0,221105,,*35
$GPRMC,125754.13,A,5459.914757,N,08255.261627,E,029.4,220.0,221105,,*33
$GPRMC,125721.16,A,5500.109373,N,08255.547568,E,026.6,220.0,221105,,*39
$GPRMC,125646.16,A,5500.298931,N,08255.824271,E,022.0,220.0,221105,,*3B
$GPRMC,125611.16,A,5500.410202,N,08256.001672,E,011.4,216.0,221105,,*3E
$GPRMC,125537.18,A,5500.507501,N,08256.132173,E,011.9,220.0,221105,,*3B
$GPRMC,125440.16,A,5500.551351,N,08256.166938,E,003.5,130.0,221105,,*3F
$GPRMC,125407.17,A,5500.565033,N,08256.131710,E,004.0,106.0,221105,,*3C
$GPRMC,125335.15,A,5500.578846,N,08256.043067,E,000.0,106.0,221105,,*39
$GPRMC,125257.21,A,5500.579673,N,08256.032556,E,000.0,106.0,221105,,*33
$GPRMC,125041.20,A,5500.584915,N,08256.029818,E,000.0,106.0,221105,,*37
$GPRMC,124842.14,A,5500.591429,N,08255.984550,E,000.0,304.0,221105,,*30
$GPRMC,124808.16,A,5500.589815,N,08255.989376,E,000.0,304.0,221105,,*39
$GPRMC,124735.19,A,5500.591447,N,08255.980130,E,000.0,304.0,221105,,*3C
$GPRMC,124703.19,A,5500.592709,N,08255.970647,E,000.0,304.0,221105,,*3B
$GPRMC,124556.18,A,5500.595168,N,08255.960633,E,000.0,304.0,221105,,*3C
$GPRMC,124500.17,A,5500.590246,N,08255.964613,E,000.0,304.0,221105,,*3C
$GPRMC,124426.19,A,5500.587448,N,08255.968401,E,003.8,306.0,221105,,*3D
$GPRMC,124237.19,A,5500.526123,N,08256.183525,E,013.2,048.0,221105,,*33
$GPRMC,124202.17,A,5500.462613,N,08256.086781,E,006.2,046.0,221105,,*3C
$GPRMC,124126.16,A,5500.381381,N,08255.966498,E,025.0,040.0,221105,,*36
$GPRMC,124049.16,A,5500.165520,N,08255.641832,E,027.0,040.0,221105,,*3F
$GPRMC,124023.21,A,5500.021969,N,08255.438052,E,000.0,000.0,221105,,*34
$GPRMC,140836.10,A,5502.634467,N,08257.167083,E,005.7,066.0,211105,,*3B
$GPRMC,140822.08,A,5502.597886,N,08257.122041,E,005.1,098.0,211105,,*36
$GPRMC,140805.10,A,5502.583240,N,08257.107484,E,005.4,116.0,211105,,*37
$GPRMC,140732.07,A,5502.608489,N,08256.990446,E,009.8,124.0,211105,,*31
$GPRMC,140717.10,A,5502.639906,N,08256.899653,E,017.0,124.0,211105,,*31
$GPRMC,140630.06,A,5502.711642,N,08256.743537,E,000.0,134.0,211105,,*38
$GPRMC,140600.06,A,5502.716548,N,08256.748816,E,003.3,126.0,211105,,*33
$GPRMC,140529.08,A,5502.739007,N,08256.710579,E,004.3,106.0,211105,,*3A
$GPRMC,140415.06,A,5502.751831,N,08256.546768,E,000.0,178.0,211105,,*34
$GPRMC,140359.04,A,5502.758412,N,08256.539017,E,000.0,178.0,211105,,*3A
$GPRMC,140328.04,A,5502.752367,N,08256.542373,E,002.8,178.0,211105,,*34
$GPRMC,140213.10,A,5502.826448,N,08256.604885,E,000.0,180.0,211105,,*30
$GPRMC,140112.08,A,5502.695206,N,08256.528332,E,005.5,192.0,211105,,*38
$GPRMC,140055.09,A,5502.683250,N,08256.516657,E,008.5,194.0,211105,,*3F
$GPRMC,135957.09,A,5502.778903,N,08256.509948,E,051.3,226.0,211105,,*31
$GPRMC,135955.09,A,5502.801477,N,08256.550470,E,040.4,226.0,211105,,*31
$GPRMC,135953.07,A,5502.822825,N,08256.588500,E,000.0,032.0,211105,,*37
$GPRMC,135930.11,A,5502.866654,N,08256.625753,E,012.8,032.0,211105,,*36
$GPRMC,135929.12,A,5502.864409,N,08256.623096,E,014.3,032.0,211105,,*30
$GPRMC,135518.04,A,5502.824285,N,08256.586442,E,002.6,024.0,211105,,*3B
$GPRMC,135305.12,A,5502.821560,N,08256.582004,E,000.0,136.0,211105,,*3B
$GPRMC,135233.12,A,5502.828271,N,08256.600213,E,000.0,136.0,211105,,*3C
$GPRMC,135002.13,A,5502.780575,N,08256.639560,E,003.9,156.0,211105,,*36
$GPRMC,134843.11,A,5502.802372,N,08256.688204,E,006.7,324.0,211105,,*3F
$GPRMC,134812.04,A,5502.733786,N,08256.684918,E,004.9,294.0,211105,,*31
$GPRMC,134757.04,A,5502.713711,N,08256.713641,E,004.8,290.0,211105,,*3A
$GPRMC,134709.09,A,5502.635316,N,08257.047540,E,005.2,260.0,211105,,*3B
$GPRMC,134655.09,A,5502.633521,N,08257.064121,E,004.8,254.0,211105,,*39
$GPRMC,134652.12,A,5502.632603,N,08257.077918,E,004.4,250.0,211105,,*3E
$GPRMC,134647.12,A,5502.631595,N,08257.095292,E,003.9,230.0,211105,,*3C
$GPRMC,134620.10,A,5502.613666,N,08257.057006,E,008.4,226.0,211105,,*30
$GPRMC,134547.10,A,5502.673433,N,08257.154424,E,020.5,238.0,211105,,*34
$GPRMC,134502.12,A,5502.895254,N,08257.590127,E,016.4,188.0,211105,,*30
$GPRMC,134310.14,A,5503.237272,N,08257.928804,E,011.8,226.0,211105,,*3F
$GPRMC,134254.14,A,5503.242198,N,08257.943002,E,011.3,226.0,211105,,*33
$GPRMC,134250.13,A,5503.252165,N,08257.973281,E,010.3,222.0,211105,,*3C
$GPRMC,134241.16,A,5503.277287,N,08258.031979,E,007.2,206.0,211105,,*3C
$GPRMC,134208.16,A,5503.305232,N,08258.059749,E,012.0,166.0,211105,,*3B
$GPRMC,134135.16,A,5503.401129,N,08258.247989,E,016.5,242.0,211105,,*37
$GPRMC,134103.15,A,5503.476891,N,08258.474781,E,013.6,220.0,211105,,*39
$GPRMC,134030.14,A,5503.612267,N,08258.381707,E,018.5,146.0,211105,,*32
$GPRMC,133957.14,A,5503.757689,N,08258.181350,E,023.8,146.0,211105,,*38
$GPRMC,133914.13,A,5503.986458,N,08257.857003,E,020.4,150.0,211105,,*34
$GPRMC,133851.11,A,5504.084431,N,08257.791165,E,010.0,220.0,211105,,*32
$GPRMC,133818.13,A,5504.148650,N,08257.956333,E,002.2,150.0,211105,,*38
$GPRMC,133558.16,A,5504.270287,N,08258.080400,E,007.4,310.0,211105,,*3D
$GPRMC,133555.16,A,5504.266132,N,08258.088366,E,006.1,330.0,211105,,*33
$GPRMC,133524.16,A,5504.237916,N,08258.075956,E,019.9,050.0,211105,,*37
$GPRMC,133451.17,A,5504.122208,N,08258.000791,E,019.7,330.0,211105,,*3A
$GPRMC,133418.16,A,5503.968827,N,08258.205126,E,017.9,320.0,211105,,*3C
$GPRMC,133346.15,A,5503.804261,N,08258.439649,E,026.2,320.0,211105,,*3E
$GPRMC,133313.16,A,5503.645210,N,08258.678584,E,007.8,324.0,211105,,*38
$GPRMC,133240.16,A,5503.592728,N,08258.651397,E,019.9,058.0,211105,,*31
$GPRMC,133208.19,A,5503.479429,N,08258.388767,E,020.9,048.0,211105,,*35
$GPRMC,133124.18,A,5503.397095,N,08258.237664,E,012.4,048.0,211105,,*36
$GPRMC,133051.17,A,5503.298688,N,08258.038702,E,022.0,050.0,211105,,*3C
$GPRMC,133018.15,A,5503.214567,N,08257.801398,E,006.7,082.0,211105,,*31
$GPRMC,132946.14,A,5503.155933,N,08257.689160,E,020.9,352.0,211105,,*37
$GPRMC,132912.14,A,5502.973502,N,08257.738940,E,011.8,034.0,211105,,*34
$GPRMC,132830.15,A,5502.925291,N,08257.673727,E,023.8,046.0,211105,,*3F
$GPRMC,132758.17,A,5502.747667,N,08257.344106,E,020.5,046.0,211105,,*31
$GPRMC,132716.17,A,5502.666574,N,08257.267504,E,020.7,298.0,211105,,*3D
$GPRMC,132640.21,A,5502.557505,N,08257.756660,E,019.4,286.0,211105,,*3D
$GPRMC,132608.21,A,5502.550922,N,08257.846479,E,000.0,284.0,211105,,*35
$GPRMC,132528.20,A,5502.541468,N,08257.875062,E,005.1,030.0,211105,,*31
$GPRMC,132455.18,A,5502.490277,N,08257.786088,E,002.5,036.0,211105,,*36
$GPRMC,132422.22,A,5502.477963,N,08257.777941,E,012.8,062.0,211105,,*37
$GPRMC,132348.18,A,5502.415264,N,08257.390691,E,025.3,084.0,211105,,*35
$GPRMC,132317.18,A,5502.379913,N,08256.952912,E,026.4,074.0,211105,,*33
$GPRMC,132243.20,A,5502.348528,N,08256.552151,E,026.8,084.0,211105,,*3E
$GPRMC,132210.19,A,5502.310015,N,08256.230491,E,015.5,352.0,211105,,*3B
$GPRMC,132138.17,A,5502.172340,N,08256.261193,E,010.5,336.0,211105,,*3D
$GPRMC,132105.17,A,5502.082678,N,08256.194198,E,018.4,084.0,211105,,*32
$GPRMC,132024.15,A,5501.977473,N,08256.050355,E,009.6,332.0,211105,,*3D
$GPRMC,131834.14,A,5501.691484,N,08256.387645,E,024.4,036.0,211105,,*3E
$GPRMC,131802.15,A,5501.470324,N,08256.107447,E,029.1,036.0,211105,,*38
$GPRMC,131729.18,A,5501.229814,N,08255.922113,E,027.1,000.0,211105,,*32
$GPRMC,131656.20,A,5500.964516,N,08255.909364,E,026.5,024.0,211105,,*34
$GPRMC,131624.21,A,5500.825066,N,08255.659464,E,023.8,348.0,211105,,*3A
$GPRMC,131551.18,A,5500.664731,N,08255.918385,E,022.4,330.0,211105,,*3F
$GPRMC,131518.22,A,5500.581814,N,08256.079884,E,009.6,310.0,211105,,*35
$GPRMC,131445.23,A,5500.454487,N,08256.370616,E,024.5,306.0,211105,,*36
$GPRMC,131413.20,A,5500.530149,N,08256.361327,E,012.3,132.0,211105,,*33
$GPRMC,131340.21,A,5500.507527,N,08256.194548,E,010.4,040.0,211105,,*3D
$GPRMC,131307.21,A,5500.441868,N,08256.091002,E,008.1,038.0,211105,,*37
$GPRMC,131234.15,A,5500.382658,N,08255.990272,E,005.3,040.0,211105,,*3A
$GPRMC,131201.18,A,5500.344599,N,08255.894797,E,013.1,042.0,211105,,*39
$GPRMC,131136.15,A,5500.207340,N,08255.737345,E,029.8,046.0,211105,,*3E
$GPRMC,091848.05,A,5459.448980,N,08254.111437,E,013.6,226.0,191105,,*3B
$GPRMC,091815.11,A,5459.487422,N,08254.161049,E,021.3,228.0,191105,,*30
$GPRMC,091742.16,A,5459.585765,N,08254.370224,E,030.6,270.0,191105,,*3A
$GPRMC,091710.03,A,5459.584225,N,08254.729916,E,000.0,258.0,191105,,*34
$GPRMC,091637.05,A,5459.582596,N,08254.722383,E,005.2,258.0,191105,,*35
$GPRMC,091605.04,A,5459.682646,N,08254.951338,E,024.5,220.0,191105,,*39
$GPRMC,091531.06,A,5459.869479,N,08255.238938,E,031.2,220.0,191105,,*36
$GPRMC,091458.11,A,5500.097123,N,08255.571638,E,026.9,220.0,191105,,*38
$GPRMC,091420.11,A,5500.335079,N,08255.924878,E,031.6,220.0,191105,,*3D
$GPRMC,091347.10,A,5500.520002,N,08256.212012,E,012.2,212.0,191105,,*39
$GPRMC,091314.11,A,5500.578314,N,08255.906983,E,023.0,116.0,191105,,*3C
$GPRMC,091240.10,A,5500.716717,N,08255.562515,E,021.5,138.0,191105,,*36
$GPRMC,091207.16,A,5500.880170,N,08255.446695,E,021.1,192.0,191105,,*3C
$GPRMC,091136.13,A,5501.079765,N,08255.397907,E,017.9,170.0,191105,,*3B
$GPRMC,091050.16,A,5501.286828,N,08255.113659,E,011.5,170.0,191105,,*3B
$GPRMC,091017.13,A,5501.416146,N,08255.095009,E,023.0,168.0,191105,,*32
$GPRMC,090944.14,A,5501.610950,N,08255.045997,E,005.2,070.0,191105,,*3D
$GPRMC,090911.09,A,5501.585076,N,08254.978229,E,019.8,078.0,191105,,*34
$GPRMC,090838.13,A,5501.614942,N,08254.831871,E,014.4,058.0,191105,,*38
$GPRMC,090801.12,A,5501.556176,N,08254.564695,E,012.8,084.0,191105,,*3B
$GPRMC,090731.12,A,5501.566448,N,08254.377016,E,010.0,112.0,191105,,*31
$GPRMC,090658.13,A,5501.657809,N,08254.190492,E,019.0,154.0,191105,,*3E
$GPRMC,090618.15,A,5501.718962,N,08254.347266,E,012.4,248.0,191105,,*3E
$GPRMC,090545.11,A,5501.751580,N,08254.423750,E,011.4,236.0,191105,,*33
$GPRMC,090512.18,A,5501.946019,N,08254.620221,E,002.2,196.0,191105,,*3A
$GPRMC,090438.15,A,5501.952980,N,08254.611166,E,000.0,210.0,191105,,*3D
$GPRMC,090008.11,A,5502.526829,N,08253.640502,E,006.4,008.0,191105,,*3C
$GPRMC,085953.13,A,5502.483773,N,08253.625323,E,005.9,350.0,191105,,*35
$GPRMC,085937.11,A,5502.429077,N,08253.631544,E,004.5,328.0,191105,,*36
$GPRMC,085921.11,A,5502.391378,N,08253.650820,E,000.0,138.0,191105,,*33
$GPRMC,085905.17,A,5502.378086,N,08253.664123,E,003.5,138.0,191105,,*3D
$GPRMC,085838.14,A,5502.394200,N,08253.648950,E,004.3,132.0,191105,,*36
$GPRMC,085834.14,A,5502.398329,N,08253.647008,E,004.1,130.0,191105,,*37
$GPRMC,085759.17,A,5502.399574,N,08253.622618,E,000.0,246.0,191105,,*3C
$GPRMC,085639.18,A,5502.435495,N,08253.625278,E,000.0,246.0,191105,,*3E
$GPRMC,085556.15,A,5502.423068,N,08253.623847,E,000.0,246.0,191105,,*38
$GPRMC,085417.13,A,5502.420928,N,08253.624750,E,000.0,246.0,191105,,*3A
$GPRMC,085109.18,A,5502.425515,N,08253.630096,E,000.0,246.0,191105,,*34
$GPRMC,085038.17,A,5502.421257,N,08253.627474,E,000.0,246.0,191105,,*33
$GPRMC,085024.16,A,5502.404142,N,08253.621817,E,000.0,246.0,191105,,*30
$GPRMC,084919.21,A,5502.407086,N,08253.628044,E,000.0,246.0,191105,,*3F
$GPRMC,084832.16,A,5502.404149,N,08253.636472,E,000.0,246.0,191105,,*3C
$GPRMC,084802.21,A,5502.411716,N,08253.669846,E,009.9,264.0,191105,,*32
$GPRMC,084715.21,A,5502.447278,N,08253.894053,E,005.4,334.0,191105,,*30
$GPRMC,084659.14,A,5502.418842,N,08253.904640,E,010.3,324.0,191105,,*38
$GPRMC,084642.16,A,5502.365744,N,08253.912397,E,012.6,300.0,191105,,*3D
$GPRMC,084626.16,A,5502.342334,N,08253.967325,E,012.6,288.0,191105,,*33
$GPRMC,084453.18,A,5502.492216,N,08254.625046,E,002.3,274.0,191105,,*39
$GPRMC,084422.19,A,5502.498824,N,08254.665877,E,006.0,258.0,191105,,*38
$GPRMC,084405.14,A,5502.505012,N,08254.718847,E,005.1,260.0,191105,,*39
$GPRMC,084349.17,A,5502.511038,N,08254.799163,E,000.0,278.0,191105,,*33
$GPRMC,084333.18,A,5502.504305,N,08254.802523,E,000.0,278.0,191105,,*35
$GPRMC,084317.14,A,5502.507406,N,08254.806811,E,000.0,278.0,191105,,*30
$GPRMC,084302.16,A,5502.519715,N,08254.817587,E,002.8,278.0,191105,,*30
$GPRMC,084215.06,A,5502.518124,N,08254.828207,E,000.0,256.0,191105,,*36
$GPRMC,084159.16,A,5502.519256,N,08254.827772,E,003.2,256.0,191105,,*32
$GPRMC,084144.12,A,5502.527222,N,08254.832514,E,012.5,260.0,191105,,*30
$GPRMC,084128.11,A,5502.561262,N,08254.952261,E,013.4,270.0,191105,,*3C
$GPRMC,084112.12,A,5502.552269,N,08255.078351,E,012.8,262.0,191105,,*31
$GPRMC,083607.19,A,5502.660587,N,08256.609041,E,000.0,000.0,191105,,*37
$GPRMC,132754.01,A,5503.024283,N,08257.988533,E,000.0,099.0,181105,,*30
$GPRMC,132721.00,A,5503.030796,N,08257.986675,E,000.0,153.0,181105,,*3F
$GPRMC,132647.99,A,5503.031576,N,08257.983125,E,002.8,163.0,181105,,*3D
$GPRMC,132615.12,A,5503.031477,N,08257.988271,E,003.8,143.0,181105,,*33
$GPRMC,132543.13,A,5503.085646,N,08257.930290,E,004.0,167.0,181105,,*38
$GPRMC,132507.13,A,5503.087473,N,08257.931988,E,000.0,215.0,181105,,*3F
$GPRMC,132318.10,A,5503.317653,N,08258.323692,E,019.2,249.0,181105,,*3F
$GPRMC,132244.12,A,5503.411917,N,08258.613487,E,013.3,237.0,181105,,*39
$GPRMC,132211.12,A,5503.481020,N,08258.762822,E,002.6,289.0,181105,,*39
$GPRMC,132139.08,A,5503.575954,N,08258.944780,E,021.1,237.0,181105,,*35
$GPRMC,132105.17,A,5503.554790,N,08259.108344,E,002.3,351.0,181105,,*3E
$GPRMC,132032.12,A,5503.545782,N,08259.108655,E,000.0,121.0,181105,,*3C
$GPRMC,131959.08,A,5503.558290,N,08259.085524,E,000.0,321.0,181105,,*39
$GPRMC,131926.11,A,5503.560258,N,08259.081829,E,000.0,321.0,181105,,*32
$GPRMC,131854.08,A,5503.558175,N,08259.085173,E,000.0,321.0,181105,,*3B
$GPRMC,131753.09,A,5503.555940,N,08259.087970,E,000.0,321.0,181105,,*38
$GPRMC,131715.09,A,5503.555693,N,08259.083135,E,000.0,321.0,181105,,*36
$GPRMC,131642.07,A,5503.558500,N,08259.082629,E,000.0,321.0,181105,,*34
$GPRMC,131511.07,A,5503.561119,N,08259.084116,E,000.0,321.0,181105,,*3A
$GPRMC,131308.02,A,5503.557187,N,08259.086004,E,000.0,321.0,181105,,*33
$GPRMC,131236.03,A,5503.551960,N,08259.088958,E,000.0,321.0,181105,,*37
$GPRMC,131156.09,A,5503.599217,N,08259.077281,E,010.8,098.0,181105,,*30
$GPRMC,131102.10,A,5503.509534,N,08258.836728,E,015.1,060.0,181105,,*37
$GPRMC,131027.15,A,5503.403883,N,08258.613163,E,014.1,052.0,181105,,*3E
$GPRMC,130954.13,A,5503.273175,N,08258.339564,E,017.0,050.0,181105,,*3B
$GPRMC,130922.12,A,5503.224108,N,08258.243556,E,021.9,052.0,181105,,*30
$GPRMC,130642.11,A,5502.773407,N,08257.358865,E,025.3,046.0,181105,,*34
$GPRMC,130609.12,A,5502.651285,N,08257.135549,E,007.8,014.0,181105,,*33
$GPRMC,130536.08,A,5502.626387,N,08257.022852,E,019.3,106.0,181105,,*32
$GPRMC,130457.12,A,5502.695108,N,08256.717198,E,005.9,174.0,181105,,*3F
$GPRMC,130424.19,A,5502.694194,N,08256.718814,E,000.0,177.0,181105,,*39
$GPRMC,130352.13,A,5502.744167,N,08256.704115,E,013.2,175.0,181105,,*32
$GPRMC,130319.11,A,5502.807405,N,08256.667887,E,008.7,169.0,181105,,*32
$GPRMC,130246.10,A,5502.835125,N,08256.595446,E,003.3,079.0,181105,,*3E
$GPRMC,130214.12,A,5502.836420,N,08256.553118,E,005.6,079.0,181105,,*3F
$GPRMC,130137.11,A,5502.665647,N,08256.537142,E,006.4,015.0,181105,,*33
$GPRMC,130105.15,A,5502.645089,N,08256.535265,E,007.3,083.0,181105,,*3D
$GPRMC,130031.13,A,5502.601378,N,08256.474658,E,000.0,077.0,181105,,*31
$GPRMC,130000.11,A,5502.593009,N,08256.471771,E,000.0,077.0,181105,,*33
$GPRMC,125927.15,A,5502.599906,N,08256.445852,E,000.0,027.0,181105,,*3F
$GPRMC,125838.08,A,5502.606592,N,08256.448512,E,004.5,068.0,181105,,*36
$GPRMC,125805.14,A,5502.634568,N,08256.351840,E,006.5,092.0,181105,,*33
$GPRMC,125733.15,A,5502.628602,N,08256.219745,E,006.5,090.0,181105,,*3F
$GPRMC,125659.05,A,5502.626391,N,08256.037457,E,019.5,088.0,181105,,*3B
$GPRMC,125616.12,A,5502.569977,N,08255.692719,E,014.8,316.0,181105,,*3B
$GPRMC,125543.15,A,5502.458006,N,08255.788819,E,003.0,006.0,181105,,*3A
$GPRMC,125510.16,A,5502.410506,N,08255.787750,E,015.4,348.0,181105,,*31
$GPRMC,125438.13,A,5502.255125,N,08255.810746,E,002.0,082.0,181105,,*3C
$GPRMC,125356.12,A,5502.258787,N,08255.796367,E,000.0,060.0,181105,,*39
$GPRMC,125323.11,A,5502.266773,N,08255.718075,E,002.0,070.0,181105,,*3B
$GPRMC,125246.10,A,5502.262667,N,08255.700459,E,009.3,070.0,181105,,*33
$GPRMC,125217.15,A,5502.253947,N,08255.582492,E,007.4,356.0,181105,,*3C
$GPRMC,125144.17,A,5502.088867,N,08255.618121,E,017.7,346.0,181105,,*32
$GPRMC,125112.14,A,5502.014230,N,08255.640351,E,010.3,322.0,181105,,*36
$GPRMC,125039.15,A,5501.897553,N,08255.679490,E,015.1,356.0,181105,,*39
$GPRMC,125005.14,A,5501.789930,N,08255.651856,E,008.0,076.0,181105,,*3E
$GPRMC,124933.14,A,5501.737181,N,08255.446616,E,002.1,022.0,181105,,*30
$GPRMC,124900.10,A,5501.693289,N,08255.432578,E,000.0,359.0,181105,,*34
$GPRMC,124827.15,A,5501.715090,N,08255.432205,E,000.0,203.0,181105,,*33
$GPRMC,124703.14,A,5501.796703,N,08255.476572,E,004.2,021.0,181105,,*3E
$GPRMC,124650.11,A,5501.795312,N,08255.483738,E,004.4,023.0,181105,,*39
$GPRMC,124643.13,A,5501.783349,N,08255.503463,E,005.5,033.0,181105,,*35
$GPRMC,124608.14,A,5501.729121,N,08255.452086,E,002.9,201.0,181105,,*33
$GPRMC,124537.13,A,5501.769187,N,08255.441213,E,003.5,215.0,181105,,*37
$GPRMC,124505.14,A,5501.816547,N,08255.428112,E,004.0,027.0,181105,,*32
$GPRMC,124405.14,A,5501.801709,N,08255.414470,E,000.0,353.0,181105,,*37
$GPRMC,124332.15,A,5501.773867,N,08255.473608,E,008.3,329.0,181105,,*32
$GPRMC,124300.17,A,5501.663948,N,08255.498503,E,000.0,245.0,181105,,*30
$GPRMC,124227.17,A,5501.679641,N,08255.557133,E,014.0,257.0,181105,,*3A
$GPRMC,124153.13,A,5501.725528,N,08255.718933,E,013.9,345.0,181105,,*37
$GPRMC,124121.13,A,5501.484302,N,08255.795166,E,013.4,019.0,181105,,*3E
$GPRMC,124047.16,A,5501.434736,N,08255.729007,E,000.0,321.0,181105,,*3D
$GPRMC,124015.16,A,5501.440553,N,08255.724570,E,000.0,321.0,181105,,*30
$GPRMC,123941.13,A,5501.382398,N,08255.811622,E,009.6,303.0,181105,,*30
$GPRMC,123909.11,A,5501.301844,N,08255.836947,E,034.9,011.0,181105,,*37
$GPRMC,123836.16,A,5500.977791,N,08255.851182,E,029.0,025.0,181105,,*32
$GPRMC,123803.16,A,5500.816378,N,08255.582233,E,014.2,343.0,181105,,*34
$GPRMC,123730.20,A,5500.682985,N,08255.775441,E,031.7,303.0,181105,,*3A
$GPRMC,123646.15,A,5500.486490,N,08256.125823,E,021.7,292.0,181105,,*33
$GPRMC,123610.18,A,5500.448944,N,08256.412863,E,014.6,180.0,181105,,*39
$GPRMC,123538.20,A,5500.552665,N,08256.291190,E,003.7,102.0,181105,,*38
$GPRMC,123505.17,A,5500.470337,N,08256.130129,E,026.3,042.0,181105,,*3D
$GPRMC,123409.13,A,5500.064243,N,08255.598212,E,031.6,044.0,181105,,*3C
$GPRMC,123356.19,A,5459.977625,N,08255.465389,E,030.4,040.0,181105,,*3E
$GPRMC,123321.18,A,5459.724059,N,08255.117913,E,024.4,042.0,181105,,*34
$GPRMC,123244.18,A,5459.617276,N,08254.842401,E,002.6,046.0,181105,,*3C
$GPRMC,123211.14,A,5459.585224,N,08254.817370,E,002.3,020.0,181105,,*3B
$GPRMC,122758.21,A,5459.641919,N,08254.503171,E,015.5,086.0,181105,,*3D
$GPRMC,122711.20,A,5459.575441,N,08254.297678,E,002.2,008.0,181105,,*36
$GPRMC,122709.18,A,5459.572831,N,08254.295702,E,002.0,006.0,181105,,*3A
$GPRMC,122702.19,A,5459.567934,N,08254.297937,E,000.0,000.0,181105,,*3E
$GPRMC,122653.18,A,5459.650594,N,08254.301250,E,000.0,000.0,181105,,*3F
$GPRMC,102128.12,A,5459.184745,N,08253.684982,E,022.5,222.0,181105,,*30
$GPRMC,101923.21,A,5459.581251,N,08254.261721,E,015.8,266.0,181105,,*37
$GPRMC,101829.17,A,5459.548917,N,08254.788465,E,005.3,260.0,181105,,*38
$GPRMC,133448.08,A,5500.499605,N,08256.167831,E,012.2,300.0,171105,,*37
$GPRMC,133415.13,A,5500.391054,N,08256.407477,E,010.9,160.0,171105,,*38
$GPRMC,133323.11,A,5500.553665,N,08256.243515,E,010.4,044.0,171105,,*3D
$GPRMC,133250.11,A,5500.463471,N,08256.112768,E,024.4,046.0,171105,,*37
$GPRMC,133218.15,A,5500.284043,N,08255.855407,E,027.8,040.0,171105,,*3F
$GPRMC,133145.16,A,5500.107288,N,08255.581345,E,026.3,040.0,171105,,*35
$GPRMC,133112.17,A,5459.888594,N,08255.241410,E,033.7,032.0,171105,,*36
$GPRMC,133036.14,A,5459.667002,N,08254.927863,E,014.4,048.0,171105,,*3E
$GPRMC,133007.15,A,5459.578653,N,08254.824566,E,007.4,034.0,171105,,*31
$GPRMC,132934.19,A,5459.586068,N,08254.740489,E,018.5,086.0,171105,,*31
$GPRMC,132900.17,A,5459.586272,N,08254.406505,E,012.7,064.0,171105,,*31
$GPRMC,132827.17,A,5459.503486,N,08254.198403,E,015.2,044.0,171105,,*30
$GPRMC,132755.21,A,5459.413939,N,08254.053593,E,017.6,048.0,171105,,*32
$GPRMC,132723.20,A,5459.333025,N,08253.911615,E,007.6,040.0,171105,,*3F
$GPRMC,132650.17,A,5459.228457,N,08253.737838,E,017.9,042.0,171105,,*33
$GPRMC,132617.14,A,5459.099749,N,08253.600357,E,000.0,086.0,171105,,*37
$GPRMC,132543.14,A,5459.107642,N,08253.603766,E,000.0,086.0,171105,,*3C
$GPRMC,132511.18,A,5459.103805,N,08253.613205,E,000.0,086.0,171105,,*3F
$GPRMC,132435.19,A,5459.090976,N,08253.594650,E,000.0,086.0,171105,,*3F
$GPRMC,132403.22,A,5459.098730,N,08253.599195,E,000.0,086.0,171105,,*35
$GPRMC,132327.18,A,5459.085913,N,08253.590115,E,000.0,046.0,171105,,*33
$GPRMC,132254.19,A,5459.080512,N,08253.593264,E,000.0,046.0,171105,,*39
$GPRMC,132222.15,A,5459.089717,N,08253.603921,E,000.0,046.0,171105,,*3A
$GPRMC,132149.15,A,5459.100701,N,08253.605091,E,002.0,026.0,171105,,*33
$GPRMC,132116.20,A,5459.061258,N,08253.575259,E,000.0,178.0,171105,,*3A
$GPRMC,132044.16,A,5459.085358,N,08253.580701,E,000.0,080.0,171105,,*36
$GPRMC,132008.15,A,5459.091529,N,08253.593327,E,000.0,080.0,171105,,*3A
$GPRMC,131935.16,A,5459.086077,N,08253.591446,E,000.0,080.0,171105,,*37
$GPRMC,131903.21,A,5459.090703,N,08253.585774,E,000.0,080.0,171105,,*32
$GPRMC,131829.19,A,5459.098623,N,08253.583794,E,000.0,080.0,171105,,*33
$GPRMC,131757.19,A,5459.095215,N,08253.599551,E,000.0,080.0,171105,,*39
$GPRMC,131717.16,A,5459.089172,N,08253.614804,E,000.0,080.0,171105,,*36
$GPRMC,131640.17,A,5459.077056,N,08253.573507,E,000.0,064.0,171105,,*34
$GPRMC,131607.17,A,5459.082113,N,08253.587898,E,000.0,064.0,171105,,*3D
$GPRMC,131434.21,A,5459.086463,N,08253.600693,E,000.0,064.0,171105,,*35
$GPRMC,131348.20,A,5459.089550,N,08253.596858,E,000.0,130.0,171105,,*33
$GPRMC,131311.21,A,5459.082121,N,08253.592460,E,000.0,130.0,171105,,*34
$GPRMC,131236.22,A,5459.083808,N,08253.601408,E,000.0,130.0,171105,,*37
$GPRMC,131153.21,A,5459.089282,N,08253.598778,E,000.0,130.0,171105,,*31
$GPRMC,131115.24,A,5459.083491,N,08253.594896,E,000.0,130.0,171105,,*3B
$GPRMC,131040.21,A,5459.095109,N,08253.591101,E,000.0,130.0,171105,,*3E
$GPRMC,130941.17,A,5459.086273,N,08253.595317,E,000.0,130.0,171105,,*3F
$GPRMC,130904.24,A,5459.090152,N,08253.602843,E,000.0,130.0,171105,,*3E
$GPRMC,130832.24,A,5459.086864,N,08253.595318,E,000.0,130.0,171105,,*39
$GPRMC,130759.25,A,5459.081503,N,08253.596626,E,000.0,130.0,171105,,*3A
$GPRMC,130727.21,A,5459.076645,N,08253.591206,E,000.0,130.0,171105,,*3F
$GPRMC,130607.20,A,5459.085263,N,08253.585221,E,000.0,130.0,171105,,*31
$GPRMC,130459.20,A,5459.085115,N,08253.594920,E,000.0,130.0,171105,,*30
$GPRMC,130251.10,A,5459.079623,N,08253.597847,E,000.0,130.0,171105,,*3F
$GPRMC,130143.23,A,5459.075415,N,08253.587115,E,000.0,130.0,171105,,*3B
$GPRMC,130043.20,A,5459.070058,N,08253.584928,E,000.0,130.0,171105,,*34
$GPRMC,125850.24,A,5459.064864,N,08253.568611,E,000.0,130.0,171105,,*3B
$GPRMC,125756.28,A,5459.066248,N,08253.568715,E,002.1,130.0,171105,,*3E
$GPRMC,125149.26,A,5459.252323,N,08253.591247,E,000.0,002.0,171105,,*36
$GPRMC,125133.26,A,5459.242780,N,08253.590230,E,000.0,002.0,171105,,*36
$GPRMC,124847.27,A,5459.264543,N,08253.580027,E,000.0,002.0,171105,,*30
$GPRMC,124756.24,A,5459.203371,N,08253.594648,E,000.0,002.0,171105,,*30
$GPRMC,124740.24,A,5459.199516,N,08253.595191,E,000.0,002.0,171105,,*32
$GPRMC,124723.28,A,5459.190524,N,08253.595332,E,000.0,002.0,171105,,*38
$GPRMC,124547.25,A,5459.210249,N,08253.602237,E,000.0,002.0,171105,,*3B
$GPRMC,124430.23,A,5459.210896,N,08253.603476,E,000.0,002.0,171105,,*36
$GPRMC,124325.24,A,5459.196392,N,08253.597437,E,000.0,002.0,171105,,*3B
$GPRMC,124254.24,A,5459.198256,N,08253.594531,E,000.0,002.0,171105,,*3F
$GPRMC,124101.24,A,5459.166273,N,08253.585626,E,002.3,212.0,171105,,*3D
$GPRMC,124014.26,A,5459.162126,N,08253.596928,E,000.0,212.0,171105,,*3F
$GPRMC,123832.26,A,5459.169262,N,08253.600766,E,000.0,212.0,171105,,*34
$GPRMC,123809.27,A,5459.182892,N,08253.600874,E,000.0,212.0,171105,,*31
$GPRMC,123735.23,A,5459.206953,N,08253.610253,E,000.0,212.0,171105,,*38
$GPRMC,123438.27,A,5459.154819,N,08253.604811,E,000.0,356.0,171105,,*31
$GPRMC,123426.29,A,5459.117817,N,08253.610754,E,003.1,356.0,171105,,*30
$GPRMC,123332.16,A,5458.992150,N,08253.280180,E,000.0,000.0,171105,,*30
$GPRMC,111919.16,A,5459.573992,N,08254.422120,E,021.5,276.0,171105,,*30
$GPRMC,111847.14,A,5459.589751,N,08254.717059,E,016.0,272.0,171105,,*33
$GPRMC,111814.13,A,5459.640043,N,08254.901273,E,004.9,220.0,171105,,*3E
$GPRMC,111739.17,A,5459.683253,N,08254.964418,E,004.6,220.0,171105,,*31
$GPRMC,111707.14,A,5459.733797,N,08255.028784,E,013.4,216.0,171105,,*3F
$GPRMC,111634.14,A,5459.888608,N,08255.232807,E,021.8,220.0,171105,,*33
$GPRMC,111525.12,A,5500.186388,N,08255.652597,E,019.7,220.0,171105,,*33
$GPRMC,111452.16,A,5500.313325,N,08255.853164,E,019.8,222.0,171105,,*35
$GPRMC,111353.14,A,5500.523126,N,08256.175925,E,009.2,238.0,171105,,*36
$GPRMC,111259.15,A,5500.586616,N,08256.070875,E,021.0,100.0,171105,,*37
$GPRMC,111226.15,A,5500.611922,N,08255.862935,E,000.0,146.0,171105,,*36
$GPRMC,111135.13,A,5500.641488,N,08255.814165,E,012.7,126.0,171105,,*37
$GPRMC,111059.12,A,5500.663038,N,08255.752826,E,003.5,126.0,171105,,*33
$GPRMC,111023.11,A,5500.744117,N,08255.578213,E,019.6,134.0,171105,,*38
$GPRMC,110949.14,A,5500.845361,N,08255.467998,E,000.0,238.0,171105,,*32
$GPRMC,110917.15,A,5500.841401,N,08255.534673,E,007.4,296.0,171105,,*37
$GPRMC,110839.17,A,5500.852269,N,08255.680116,E,018.8,222.0,171105,,*37
$GPRMC,060656.11,A,5501.928848,N,08256.012511,E,000.0,144.0,171105,,*3B
$GPRMC,060648.11,A,5501.927189,N,08256.019605,E,002.4,138.0,171105,,*3F
$GPRMC,060601.12,A,5501.932907,N,08256.052231,E,002.5,090.0,171105,,*35
$GPRMC,060553.15,A,5501.935153,N,08256.047367,E,004.2,088.0,171105,,*36
$GPRMC,060552.11,A,5501.934761,N,08256.042978,E,004.2,088.0,171105,,*34
$GPRMC,060542.16,A,5501.931702,N,08256.024199,E,004.0,096.0,171105,,*38
$GPRMC,060507.13,A,5501.926138,N,08255.950578,E,003.8,154.0,171105,,*37
$GPRMC,060433.16,A,5501.965967,N,08255.919470,E,000.0,168.0,171105,,*31
$GPRMC,060356.12,A,5502.020203,N,08255.902381,E,003.4,172.0,171105,,*3C
$GPRMC,060328.10,A,5502.042952,N,08255.905989,E,000.0,194.0,171105,,*36
$GPRMC,060255.14,A,5502.027891,N,08255.913484,E,004.7,240.0,171105,,*3A
$GPRMC,060222.13,A,5502.051693,N,08256.139169,E,016.5,250.0,171105,,*35
$GPRMC,060149.12,A,5502.179494,N,08256.120087,E,020.1,174.0,171105,,*39
$GPRMC,060041.15,A,5502.295604,N,08256.150502,E,021.5,262.0,171105,,*33
$GPRMC,060007.11,A,5502.311407,N,08256.388353,E,022.5,258.0,171105,,*36
$GPRMC,055931.13,A,5502.350226,N,08256.776788,E,017.2,266.0,171105,,*35
$GPRMC,055848.15,A,5502.410481,N,08257.235489,E,002.6,310.0,171105,,*35
$GPRMC,055825.09,A,5502.376384,N,08257.164246,E,031.3,276.0,171105,,*30
$GPRMC,055740.13,A,5502.457234,N,08257.684220,E,000.0,196.0,171105,,*3C
$GPRMC,055707.15,A,5502.487668,N,08257.716169,E,009.4,200.0,171105,,*3C
$GPRMC,055634.12,A,5502.571275,N,08257.704435,E,009.7,202.0,171105,,*34
$GPRMC,055601.10,A,5502.739844,N,08257.682695,E,010.7,176.0,171105,,*39
$GPRMC,055511.11,A,5502.823999,N,08257.774250,E,007.8,246.0,171105,,*33
$GPRMC,055443.14,A,5502.848748,N,08257.846229,E,012.5,224.0,171105,,*32
$GPRMC,055410.17,A,5502.914716,N,08257.992974,E,003.2,166.0,171105,,*3D
$GPRMC,055337.15,A,5502.973115,N,08257.938440,E,007.1,144.0,171105,,*34
$GPRMC,055304.12,A,5502.977323,N,08257.944139,E,000.0,234.0,171105,,*32
$GPRMC,055224.16,A,5502.996493,N,08257.920616,E,006.4,208.0,171105,,*33
$GPRMC,055200.14,A,5503.049545,N,08257.954718,E,002.0,252.0,171105,,*34
$GPRMC,055033.11,A,5503.044596,N,08257.965420,E,000.0,150.0,171105,,*39
$GPRMC,055001.12,A,5503.044511,N,08257.965327,E,002.0,150.0,171105,,*36
$GPRMC,054928.12,A,5503.099783,N,08257.883119,E,015.6,032.0,171105,,*3F
$GPRMC,054855.11,A,5502.978940,N,08257.665867,E,010.2,036.0,171105,,*32
$GPRMC,054822.13,A,5502.918621,N,08257.584532,E,003.0,036.0,171105,,*3F
$GPRMC,054749.15,A,5502.794939,N,08257.410436,E,029.2,066.0,171105,,*31
$GPRMC,054716.17,A,5502.647919,N,08257.140229,E,014.0,060.0,171105,,*36
$GPRMC,054644.14,A,5502.600246,N,08256.970388,E,010.7,040.0,171105,,*30
$GPRMC,054610.19,A,5502.509532,N,08256.779902,E,013.6,048.0,171105,,*37
$GPRMC,054520.17,A,5502.506670,N,08256.509200,E,007.2,142.0,171105,,*35
$GPRMC,054441.15,A,5502.559633,N,08256.339665,E,025.1,062.0,171105,,*3E
$GPRMC,054408.13,A,5502.500713,N,08256.049268,E,000.0,326.0,171105,,*32
$GPRMC,054333.20,A,5502.510052,N,08256.030325,E,000.0,326.0,171105,,*38
$GPRMC,054300.17,A,5502.489773,N,08256.069905,E,000.0,340.0,171105,,*3D
$GPRMC,054227.13,A,5502.503998,N,08256.050181,E,000.0,340.0,171105,,*3B
$GPRMC,054021.22,A,5502.402520,N,08256.069478,E,000.0,184.0,171105,,*31
$GPRMC,054000.16,A,5502.347316,N,08256.127187,E,000.0,184.0,171105,,*3E
$GPRMC,053936.14,A,5502.350695,N,08256.154780,E,003.0,144.0,171105,,*35
$GPRMC,053904.21,A,5502.360103,N,08256.141907,E,006.3,122.0,171105,,*3A
$GPRMC,052509.19,A,5502.370424,N,08256.114225,E,000.0,078.0,171105,,*30
$GPRMC,052436.23,A,5502.370424,N,08256.114225,E,000.0,078.0,171105,,*34
$GPRMC,052353.20,A,5502.361567,N,08256.122336,E,000.0,078.0,171105,,*33
$GPRMC,052255.20,A,5502.372940,N,08256.127403,E,000.0,078.0,171105,,*3B
$GPRMC,052223.23,A,5502.369725,N,08256.110522,E,002.1,060.0,171105,,*32
$GPRMC,052003.20,A,5502.373254,N,08256.106771,E,000.0,302.0,171105,,*3E
$GPRMC,051930.17,A,5502.370511,N,08256.116862,E,000.0,302.0,171105,,*39
$GPRMC,051858.20,A,5502.368246,N,08256.128790,E,000.0,302.0,171105,,*31
$GPRMC,051720.18,A,5502.365556,N,08256.113037,E,000.0,302.0,171105,,*33
$GPRMC,051621.24,A,5502.379958,N,08256.087645,E,000.0,302.0,171105,,*3C
$GPRMC,051548.18,A,5502.365637,N,08256.119258,E,000.0,000.0,171105,,*3B
$GPRMC,051523.20,A,5502.356207,N,08256.210465,E,000.0,000.0,171105,,*38
$GPRMC,150041.18,A,5503.026317,N,08258.077131,E,000.0,356.0,161105,,*3F
$GPRMC,145951.23,A,5503.040071,N,08258.073002,E,000.0,356.0,161105,,*3D
$GPRMC,145858.23,A,5503.066823,N,08258.064798,E,000.0,356.0,161105,,*3C
$GPRMC,145841.23,A,5503.098745,N,08258.066421,E,000.0,356.0,161105,,*39
$GPRMC,145803.18,A,5503.096176,N,08258.071251,E,003.0,354.0,161105,,*39
$GPRMC,145750.19,A,5503.064394,N,08258.072460,E,000.0,000.0,161105,,*34
$GPRMC,144718.97,A,5503.066961,N,08257.970936,E,000.0,326.0,161105,,*30
$GPRMC,144658.97,A,5503.067333,N,08257.972711,E,002.0,340.0,161105,,*32
$GPRMC,144605.98,A,5503.037262,N,08257.972420,E,000.0,196.0,161105,,*3F
$GPRMC,144553.98,A,5503.028799,N,08257.972162,E,002.6,192.0,161105,,*33
$GPRMC,144520.97,A,5503.045536,N,08257.967393,E,007.0,186.0,161105,,*3A
$GPRMC,144228.87,A,5503.441960,N,08258.658952,E,017.9,224.0,161105,,*33
$GPRMC,144130.02,A,5503.607667,N,08258.964261,E,010.4,280.0,161105,,*33
$GPRMC,144125.01,A,5503.609743,N,08258.983342,E,009.7,284.0,161105,,*3B
$GPRMC,144123.03,A,5503.610520,N,08258.992361,E,009.1,288.0,161105,,*3B
$GPRMC,144121.02,A,5503.611283,N,08259.013424,E,008.1,298.0,161105,,*30
$GPRMC,144118.98,A,5503.610923,N,08259.024535,E,007.8,302.0,161105,,*38
$GPRMC,144054.99,A,5503.532999,N,08259.101437,E,000.0,170.0,161105,,*3F
$GPRMC,144019.98,A,5503.524737,N,08259.109546,E,004.5,172.0,161105,,*36
$GPRMC,143948.02,A,5503.563602,N,08259.103550,E,002.1,048.0,161105,,*3C
